{
"icao": "00AK",
"iata": "",
"name": "Lowell Field",
"city": "Anchor Point",
"state": "Alaska",
"country": "US",
"elevation": 450,
"lat": 59.94919968,
"lon": -151.695999146,
"tz": "America\/Anchorage"
},
{
"icao": "00AL",
"iata": "",
"name": "Epps Airpark",
"city": "Harvest",
"state": "Alabama",
"country": "US",
"elevation": 820,
"lat": 34.8647994995,
"lon": -86.7703018188,
"tz": "America\/Chicago"
},
{
"icao": "00AZ",
"iata": "",
"name": "Cordes Airport",
"city": "Cordes",
"state": "Arizona",
"country": "US",
"elevation": 3810,
"lat": 34.3055992126,
"lon": -112.1650009155,
"tz": "America\/Phoenix"
},
{
"icao": "00CA",
"iata": "",
"name": "Goldstone \/Gts\/ Airport",
"city": "Barstow",
"state": "California",
"country": "US",
"elevation": 3038,
"lat": 35.3504981995,
"lon": -116.888000488,
"tz": "America\/Los_Angeles"
},
{
"icao": "00CO",
"iata": "",
"name": "Cass Field",
"city": "Briggsdale",
"state": "Colorado",
"country": "US",
"elevation": 4830,
"lat": 40.6222000122,
"lon": -104.34400177,
"tz": "America\/Denver"
},
{
"icao": "00FA",
"iata": "",
"name": "Grass Patch Airport",
"city": "Bushnell",
"state": "Florida",
"country": "US",
"elevation": 53,
"lat": 28.6455001831,
"lon": -82.21900177,
"tz": "America\/New_York"
},
{
"icao": "00FL",
"iata": "",
"name": "River Oak Airport",
"city": "Okeechobee",
"state": "Florida",
"country": "US",
"elevation": 35,
"lat": 27.2308998108,
"lon": -80.9692001343,
"tz": "America\/New_York"
},
{
"icao": "00GA",
"iata": "",
"name": "Lt World Airport",
"city": "Lithonia",
"state": "Georgia",
"country": "US",
"elevation": 700,
"lat": 33.7675018311,
"lon": -84.0682983398,
"tz": "America\/New_York"
},
{
"icao": "00ID",
"iata": "",
"name": "Delta Shores Airport",
"city": "Clark Fork",
"state": "Idaho",
"country": "US",
"elevation": 2064,
"lat": 48.1453018188,
"lon": -116.2139968872,
"tz": "America\/Los_Angeles"
},
{
"icao": "00IL",
"iata": "",
"name": "Hammer Airport",
"city": "Polo",
"state": "Illinois",
"country": "US",
"elevation": 840,
"lat": 41.9784011841,
"lon": -89.5604019165,
"tz": "America\/Chicago"
},
{
"icao": "00IS",
"iata": "",
"name": "Hayenga's Cant Find Farms Airport",
"city": "Kings",
"state": "Illinois",
"country": "US",
"elevation": 820,
"lat": 40.0256004333,
"lon": -89.1229019165,
"tz": "America\/Chicago"
},
{
"icao": "00KS",
"iata": "",
"name": "Hayden Farm Airport",
"city": "Gardner",
"state": "Kansas",
"country": "US",
"elevation": 1100,
"lat": 38.7277984619,
"lon": -94.9304962158,
"tz": "America\/Chicago"
},
{
"icao": "00KY",
"iata": "",
"name": "Robbins Roost Airport",
"city": "Stanford",
"state": "Kentucky",
"country": "US",
"elevation": 1265,
"lat": 37.4094009399,
"lon": -84.6196975708,
"tz": "America\/New_York"
},
{
"icao": "00LS",
"iata": "",
"name": "Lejeune Airport",
"city": "Esterwood",
"state": "Louisiana",
"country": "US",
"elevation": 12,
"lat": 30.1362991333,
"lon": -92.429397583,
"tz": "America\/Chicago"
},
{
"icao": "00MD",
"iata": "",
"name": "Slater Field",
"city": "Federalsburg",
"state": "Maryland",
"country": "US",
"elevation": 45,
"lat": 38.7570991516,
"lon": -75.7537994385,
"tz": "America\/New_York"
},
{
"icao": "00MN",
"iata": "",
"name": "Battle Lake Municipal Airport",
"city": "Battle Lake",
"state": "Minnesota",
"country": "US",
"elevation": 1365,
"lat": 46.2999992371,
"lon": -95.700302124,
"tz": "America\/Chicago"
},
{
"icao": "00MO",
"iata": "",
"name": "Cooper Flying Service Airport",
"city": "Alba",
"state": "Missouri",
"country": "US",
"elevation": 970,
"lat": 37.2028007507,
"lon": -94.412399292,
"tz": "America\/Chicago"
},
{
"icao": "00MT",
"iata": "",
"name": "Sands Ranch Airport",
"city": "Havre",
"state": "Montana",
"country": "US",
"elevation": 2600,
"lat": 48.5374984741,
"lon": -109.7050018311,
"tz": "America\/Denver"
},
{
"icao": "00NC",
"iata": "",
"name": "North Raleigh Airport",
"city": "Louisburg",
"state": "North Carolina",
"country": "US",
"elevation": 348,
"lat": 36.0852012634,
"lon": -78.3713989258,
"tz": "America\/New_York"
},
{
"icao": "00NY",
"iata": "",
"name": "Weiss Airfield",
"city": "West Bloomfield",
"state": "New York",
"country": "US",
"elevation": 1000,
"lat": 42.900100708,
"lon": -77.4997024536,
"tz": "America\/New_York"
},
{
"icao": "00OH",
"iata": "",
"name": "Exit 3 Airport",
"city": "Wauseon",
"state": "Ohio",
"country": "US",
"elevation": 785,
"lat": 41.5909004211,
"lon": -84.1421966553,
"tz": "America\/New_York"
},
{
"icao": "00PN",
"iata": "",
"name": "Ferrell Field",
"city": "Mercer",
"state": "Pennsylvania",
"country": "US",
"elevation": 1301,
"lat": 41.2995,
"lon": -80.211111,
"tz": "America\/New_York"
}